Client (null) sending CONNECT
Client (null) received CONNACK (0)
Client (null) sending SUBSCRIBE (Mid: 1, Topic: #, QoS: 0, Options: 0x00)
Client (null) received SUBACK
Subscribed (mid: 1): 0
Client (null) received PUBLISH (d0, q0, r0, m0, '/ATTITUDE', ... (228 bytes))
{"time_boot_ms": 554601, "roll": -0.0010345494374632835, "pitch": -0.0012693305034190416, "yaw": -0.1401372253894806, "rollspeed": -0.00019038963364437222, "pitchspeed": -0.000322232604958117, "yawspeed": -0.0007815243443474174}
Client (null) received PUBLISH (d0, q0, r0, m0, '/GLOBAL_POSITION_INT', ... (140 bytes))
{"time_boot_ms": 554601, "lat": -353632620, "lon": 1491652373, "alt": 584060, "relative_alt": -20, "vx": 1, "vy": -1, "vz": 0, "hdg": 35198}
Client (null) received PUBLISH (d0, q0, r0, m0, '/SYS_STATUS', ... (344 bytes))
{"onboard_control_sensors_present": 1399979055, "onboard_control_sensors_enabled": 1382128687, "onboard_control_sensors_health": 1399954479, "load": 0, "voltage_battery": 12587, "current_battery": 0, "battery_remaining": 100, "drop_rate_comm": 0, "errors_comm": 0, "errors_count1": 0, "errors_count2": 0, "errors_count3": 0, "errors_count4": 0}
Client (null) received PUBLISH (d0, q0, r0, m0, '/POWER_STATUS', ... (38 bytes))
{"Vcc": 5000, "Vservo": 0, "flags": 0}
Client (null) received PUBLISH (d0, q0, r0, m0, '/MEMINFO', ... (52 bytes))
{"brkval": 0, "freemem": 65535, "freemem32": 131072}
Client (null) received PUBLISH (d0, q0, r0, m0, '/NAV_CONTROLLER_OUTPUT', ... (204 bytes))
{"nav_roll": -0.00017957841919269413, "nav_pitch": 0.00031470032990910113, "nav_bearing": -8, "target_bearing": 0, "wp_dist": 0, "alt_error": 0.0003023423778358847, "aspd_error": 0.0, "xtrack_error": 0.0}
Client (null) received PUBLISH (d0, q0, r0, m0, '/MISSION_CURRENT', ... (61 bytes))
{"seq": 0, "total": 0, "mission_state": 0, "mission_mode": 0}
Client (null) received PUBLISH (d0, q0, r0, m0, '/VFR_HUD', ... (144 bytes))
{"airspeed": 0.0, "groundspeed": 0.024048252031207085, "heading": 351, "throttle": 0, "alt": 584.0599975585938, "climb": -0.0001890278945211321}
Client (null) received PUBLISH (d0, q0, r0, m0, '/SERVO_OUTPUT_RAW', ... (326 bytes))
{"time_usec": 554601404, "port": 0, "servo1_raw": 1000, "servo2_raw": 1000, "servo3_raw": 1000, "servo4_raw": 1000, "servo5_raw": 0, "servo6_raw": 0, "servo7_raw": 0, "servo8_raw": 0, "servo9_raw": 0, "servo10_raw": 0, "servo11_raw": 0, "servo12_raw": 0, "servo13_raw": 0, "servo14_raw": 0, "servo15_raw": 0, "servo16_raw": 0}
Client (null) received PUBLISH (d0, q0, r0, m0, '/RC_CHANNELS', ... (375 bytes))
{"time_boot_ms": 554601, "chancount": 16, "chan1_raw": 1500, "chan2_raw": 1500, "chan3_raw": 1000, "chan4_raw": 1500, "chan5_raw": 1800, "chan6_raw": 1000, "chan7_raw": 1000, "chan8_raw": 1800, "chan9_raw": 0, "chan10_raw": 0, "chan11_raw": 0, "chan12_raw": 0, "chan13_raw": 0, "chan14_raw": 0, "chan15_raw": 0, "chan16_raw": 0, "chan17_raw": 0, "chan18_raw": 0, "rssi": 255}
Client (null) received PUBLISH (d0, q0, r0, m0, '/RAW_IMU', ... (166 bytes))
{"time_usec": 554601404, "xacc": 0, "yacc": 0, "zacc": -1001, "xgyro": 0, "ygyro": 0, "zgyro": 0, "xmag": 224, "ymag": 80, "zmag": -528, "id": 0, "temperature": 4183}
Client (null) received PUBLISH (d0, q0, r0, m0, '/SCALED_IMU2', ... (157 bytes))
{"time_boot_ms": 554601, "xacc": 0, "yacc": 0, "zacc": -1001, "xgyro": 0, "ygyro": 0, "zgyro": 0, "xmag": 224, "ymag": 80, "zmag": -528, "temperature": 4183}
Client (null) received PUBLISH (d0, q0, r0, m0, '/SCALED_IMU3', ... (150 bytes))
{"time_boot_ms": 554601, "xacc": 0, "yacc": 0, "zacc": 0, "xgyro": 0, "ygyro": 0, "zgyro": 0, "xmag": 224, "ymag": 80, "zmag": -528, "temperature": 0}
Client (null) received PUBLISH (d0, q0, r0, m0, '/SCALED_PRESSURE', ... (125 bytes))
{"time_boot_ms": 554601, "press_abs": 945.0279541015625, "press_diff": 0.0, "temperature": 3120, "temperature_press_diff": 0}
Client (null) received PUBLISH (d0, q0, r0, m0, '/SCALED_PRESSURE2', ... (125 bytes))
{"time_boot_ms": 554601, "press_abs": 945.0499267578125, "press_diff": 0.0, "temperature": 3120, "temperature_press_diff": 0}
Client (null) received PUBLISH (d0, q0, r0, m0, '/GPS_RAW_INT', ... (254 bytes))
{"time_usec": 554567000, "fix_type": 6, "lat": -353632621, "lon": 1491652374, "alt": 584090, "eph": 121, "epv": 200, "vel": 0, "cog": 0, "satellites_visible": 10, "alt_ellipsoid": 584090, "h_acc": 300, "v_acc": 300, "vel_acc": 40, "hdg_acc": 0, "yaw": 0}
Client (null) received PUBLISH (d0, q0, r0, m0, '/SYSTEM_TIME', ... (60 bytes))
{"time_unix_usec": 1719974161434109, "time_boot_ms": 554601}
Client (null) received PUBLISH (d0, q0, r0, m0, '/AHRS', ... (215 bytes))
{"omegaIx": -0.0008413019240833819, "omegaIy": -0.0009052623063325882, "omegaIz": -0.0013988607097417116, "accel_weight": 0.0, "renorm_val": 0.0, "error_rp": 0.002366523491218686, "error_yaw": 0.0013939352938905358}
Client (null) received PUBLISH (d0, q0, r0, m0, '/SIMSTATE', ... (190 bytes))
{"roll": 0.0, "pitch": 0.0, "yaw": -0.12217313796281815, "xacc": 0.0, "yacc": 0.0, "zacc": -9.806650161743164, "xgyro": 0.0, "ygyro": 0.0, "zgyro": 0.0, "lat": -353632621, "lng": 1491652374}
Client (null) received PUBLISH (d0, q0, r0, m0, '/AHRS2', ... (162 bytes))
{"roll": -0.001555808586999774, "pitch": -0.0017946577863767743, "yaw": -0.11900384724140167, "altitude": 584.0899658203125, "lat": -353632621, "lng": 1491652374}
Client (null) received PUBLISH (d0, q0, r0, m0, '/HWSTATUS', ... (26 bytes))
{"Vcc": 5000, "I2Cerr": 0}
Client (null) received PUBLISH (d0, q0, r0, m0, '/TERRAIN_REPORT', ... (160 bytes))
{"lat": -353632620, "lon": 1491652373, "spacing": 100, "terrain_height": 583.843994140625, "current_height": -0.030122069641947746, "pending": 0, "loaded": 504}
Client (null) received PUBLISH (d0, q0, r0, m0, '/EKF_STATUS_REPORT', ... (242 bytes))
{"flags": 831, "velocity_variance": 0.008764564990997314, "pos_horiz_variance": 0.005072589032351971, "pos_vert_variance": 2.787556149996817e-05, "compass_variance": 0.013860286213457584, "terrain_alt_variance": 0.0, "airspeed_variance": 0.0}
Client (null) received PUBLISH (d0, q0, r0, m0, '/LOCAL_POSITION_NED', ... (193 bytes))
{"time_boot_ms": 554601, "x": 0.011493109166622162, "y": -0.015063930302858353, "z": 0.0003023423778358847, "vx": 0.014660648070275784, "vy": -0.019062628969550133, "vz": 0.0001890278945211321}
Client (null) received PUBLISH (d0, q0, r0, m0, '/VIBRATION', ... (187 bytes))
{"time_usec": 554601404, "vibration_x": 0.002872502664104104, "vibration_y": 0.002794574946165085, "vibration_z": 0.0026825948152691126, "clipping_0": 0, "clipping_1": 0, "clipping_2": 0}
Client (null) received PUBLISH (d0, q0, r0, m0, '/BATTERY_STATUS', ... (347 bytes))
{"id": 0, "battery_function": 0, "type": 0, "temperature": 32767, "voltages": "[12587, 65535, 65535, 65535, 65535, 65535, 65535, 65535, 65535, 65535]", "current_battery": 0, "current_consumed": 0, "energy_consumed": 0, "battery_remaining": 100, "time_remaining": 0, "charge_state": 1, "voltages_ext": "[0, 0, 0, 0]", "mode": 0, "fault_bitmask": 0}
Client (null) received PUBLISH (d0, q0, r0, m0, '/ATTITUDE', ... (228 bytes))
{"time_boot_ms": 554851, "roll": -0.0010315354447811842, "pitch": -0.0012665856629610062, "yaw": -0.1401328146457672, "rollspeed": -0.00024697795743122697, "pitchspeed": -0.000328687543515116, "yawspeed": -0.0007393527776002884}
Client (null) received PUBLISH (d0, q0, r0, m0, '/GLOBAL_POSITION_INT', ... (140 bytes))
{"time_boot_ms": 554851, "lat": -353632620, "lon": 1491652373, "alt": 584060, "relative_alt": -20, "vx": 1, "vy": -1, "vz": 0, "hdg": 35198}
Client (null) received PUBLISH (d0, q0, r0, m0, '/SYS_STATUS', ... (344 bytes))
{"onboard_control_sensors_present": 1399979055, "onboard_control_sensors_enabled": 1382128687, "onboard_control_sensors_health": 1399954479, "load": 0, "voltage_battery": 12587, "current_battery": 0, "battery_remaining": 100, "drop_rate_comm": 0, "errors_comm": 0, "errors_count1": 0, "errors_count2": 0, "errors_count3": 0, "errors_count4": 0}
Client (null) received PUBLISH (d0, q0, r0, m0, '/POWER_STATUS', ... (38 bytes))
{"Vcc": 5000, "Vservo": 0, "flags": 0}
Client (null) received PUBLISH (d0, q0, r0, m0, '/MEMINFO', ... (52 bytes))
{"brkval": 0, "freemem": 65535, "freemem32": 131072}
Client (null) received PUBLISH (d0, q0, r0, m0, '/NAV_CONTROLLER_OUTPUT', ... (203 bytes))
{"nav_roll": -0.0001795785065041855, "nav_pitch": 0.00031470032990910113, "nav_bearing": -8, "target_bearing": 0, "wp_dist": 0, "alt_error": 0.0002947888569906354, "aspd_error": 0.0, "xtrack_error": 0.0}
Client (null) received PUBLISH (d0, q0, r0, m0, '/MISSION_CURRENT', ... (61 bytes))
{"seq": 0, "total": 0, "mission_state": 0, "mission_mode": 0}
Client (null) received PUBLISH (d0, q0, r0, m0, '/VFR_HUD', ... (144 bytes))
{"airspeed": 0.0, "groundspeed": 0.02400725707411766, "heading": 351, "throttle": 0, "alt": 584.0599975585938, "climb": -0.00018704807735048234}
Client (null) received PUBLISH (d0, q0, r0, m0, '/SERVO_OUTPUT_RAW', ... (326 bytes))
{"time_usec": 554851304, "port": 0, "servo1_raw": 1000, "servo2_raw": 1000, "servo3_raw": 1000, "servo4_raw": 1000, "servo5_raw": 0, "servo6_raw": 0, "servo7_raw": 0, "servo8_raw": 0, "servo9_raw": 0, "servo10_raw": 0, "servo11_raw": 0, "servo12_raw": 0, "servo13_raw": 0, "servo14_raw": 0, "servo15_raw": 0, "servo16_raw": 0}
Client (null) received PUBLISH (d0, q0, r0, m0, '/RC_CHANNELS', ... (375 bytes))
{"time_boot_ms": 554851, "chancount": 16, "chan1_raw": 1500, "chan2_raw": 1500, "chan3_raw": 1000, "chan4_raw": 1500, "chan5_raw": 1800, "chan6_raw": 1000, "chan7_raw": 1000, "chan8_raw": 1800, "chan9_raw": 0, "chan10_raw": 0, "chan11_raw": 0, "chan12_raw": 0, "chan13_raw": 0, "chan14_raw": 0, "chan15_raw": 0, "chan16_raw": 0, "chan17_raw": 0, "chan18_raw": 0, "rssi": 255}
Client (null) received PUBLISH (d0, q0, r0, m0, '/RAW_IMU', ... (166 bytes))
{"time_usec": 554851304, "xacc": 0, "yacc": 0, "zacc": -1001, "xgyro": 0, "ygyro": 0, "zgyro": 0, "xmag": 224, "ymag": 80, "zmag": -528, "id": 0, "temperature": 4183}
Client (null) received PUBLISH (d0, q0, r0, m0, '/SCALED_IMU2', ... (157 bytes))
{"time_boot_ms": 554851, "xacc": 0, "yacc": 0, "zacc": -1001, "xgyro": 0, "ygyro": 0, "zgyro": 0, "xmag": 224, "ymag": 80, "zmag": -528, "temperature": 4183}
Client (null) received PUBLISH (d0, q0, r0, m0, '/SCALED_IMU3', ... (150 bytes))
{"time_boot_ms": 554851, "xacc": 0, "yacc": 0, "zacc": 0, "xgyro": 0, "ygyro": 0, "zgyro": 0, "xmag": 224, "ymag": 80, "zmag": -528, "temperature": 0}
Client (null) received PUBLISH (d0, q0, r0, m0, '/SCALED_PRESSURE', ... (125 bytes))
{"time_boot_ms": 554851, "press_abs": 945.0279541015625, "press_diff": 0.0, "temperature": 3120, "temperature_press_diff": 0}
Client (null) received PUBLISH (d0, q0, r0, m0, '/SCALED_PRESSURE2', ... (125 bytes))
{"time_boot_ms": 554851, "press_abs": 945.0455932617188, "press_diff": 0.0, "temperature": 3120, "temperature_press_diff": 0}
Client (null) received PUBLISH (d0, q0, r0, m0, '/GPS_RAW_INT', ... (254 bytes))
{"time_usec": 554767000, "fix_type": 6, "lat": -353632621, "lon": 1491652374, "alt": 584090, "eph": 121, "epv": 200, "vel": 0, "cog": 0, "satellites_visible": 10, "alt_ellipsoid": 584090, "h_acc": 300, "v_acc": 300, "vel_acc": 40, "hdg_acc": 0, "yaw": 0}
Client (null) received PUBLISH (d0, q0, r0, m0, '/SYSTEM_TIME', ... (60 bytes))
{"time_unix_usec": 1719974161684009, "time_boot_ms": 554851}
Client (null) received PUBLISH (d0, q0, r0, m0, '/AHRS', ... (215 bytes))
{"omegaIx": -0.0008386460249312222, "omegaIy": -0.0009025456965900958, "omegaIz": -0.0013948522973805666, "accel_weight": 0.0, "renorm_val": 0.0, "error_rp": 0.0023664836771786213, "error_yaw": 0.001403634436428547}
Client (null) received PUBLISH (d0, q0, r0, m0, '/SIMSTATE', ... (190 bytes))
{"roll": 0.0, "pitch": 0.0, "yaw": -0.12217313796281815, "xacc": 0.0, "yacc": 0.0, "zacc": -9.806650161743164, "xgyro": 0.0, "ygyro": 0.0, "zgyro": 0.0, "lat": -353632621, "lng": 1491652374}
Client (null) received PUBLISH (d0, q0, r0, m0, '/AHRS2', ... (163 bytes))
{"roll": -0.0015597259625792503, "pitch": -0.0017998649273067713, "yaw": -0.11901750415563583, "altitude": 584.0899658203125, "lat": -353632621, "lng": 1491652374}
Client (null) received PUBLISH (d0, q0, r0, m0, '/HWSTATUS', ... (26 bytes))
{"Vcc": 5000, "I2Cerr": 0}
Client (null) received PUBLISH (d0, q0, r0, m0, '/TERRAIN_REPORT', ... (160 bytes))
{"lat": -353632620, "lon": 1491652373, "spacing": 100, "terrain_height": 583.843994140625, "current_height": -0.030122069641947746, "pending": 0, "loaded": 504}
Client (null) received PUBLISH (d0, q0, r0, m0, '/EKF_STATUS_REPORT', ... (243 bytes))
{"flags": 831, "velocity_variance": 0.008825642056763172, "pos_horiz_variance": 0.005159467924386263, "pos_vert_variance": 2.8829710572608747e-05, "compass_variance": 0.013910648413002491, "terrain_alt_variance": 0.0, "airspeed_variance": 0.0}
Client (null) received PUBLISH (d0, q0, r0, m0, '/LOCAL_POSITION_NED', ... (192 bytes))
{"time_boot_ms": 554851, "x": 0.0114502077922225, "y": -0.014982796274125576, "z": 0.0002947888569906354, "vx": 0.014660929329693317, "vy": -0.019010668620467186, "vz": 0.00018704807735048234}
Client (null) received PUBLISH (d0, q0, r0, m0, '/VIBRATION', ... (188 bytes))
{"time_usec": 554851304, "vibration_x": 0.0028309267945587635, "vibration_y": 0.0026991094928234816, "vibration_z": 0.002720331773161888, "clipping_0": 0, "clipping_1": 0, "clipping_2": 0}
Client (null) received PUBLISH (d0, q0, r0, m0, '/BATTERY_STATUS', ... (347 bytes))
{"id": 0, "battery_function": 0, "type": 0, "temperature": 32767, "voltages": "[12587, 65535, 65535, 65535, 65535, 65535, 65535, 65535, 65535, 65535]", "current_battery": 0, "current_consumed": 0, "energy_consumed": 0, "battery_remaining": 100, "time_remaining": 0, "charge_state": 1, "voltages_ext": "[0, 0, 0, 0]", "mode": 0, "fault_bitmask": 0}
Client (null) received PUBLISH (d0, q0, r0, m0, '/HEARTBEAT', ... (104 bytes))
{"type": 2, "autopilot": 3, "base_mode": 81, "custom_mode": 0, "system_status": 3, "mavlink_version": 3}
Client (null) received PUBLISH (d0, q0, r0, m0, '/ATTITUDE', ... (229 bytes))
{"time_boot_ms": 555101, "roll": -0.0010256817331537604, "pitch": -0.001264655962586403, "yaw": -0.14013870060443878, "rollspeed": -0.00019259657710790634, "pitchspeed": -0.0002490089973434806, "yawspeed": -0.0007452192949131131}
Client (null) received PUBLISH (d0, q0, r0, m0, '/GLOBAL_POSITION_INT', ... (140 bytes))
{"time_boot_ms": 555101, "lat": -353632620, "lon": 1491652373, "alt": 584060, "relative_alt": -20, "vx": 1, "vy": -1, "vz": 0, "hdg": 35198}
Client (null) received PUBLISH (d0, q0, r0, m0, '/SYS_STATUS', ... (344 bytes))
{"onboard_control_sensors_present": 1399979055, "onboard_control_sensors_enabled": 1382128687, "onboard_control_sensors_health": 1399954479, "load": 0, "voltage_battery": 12587, "current_battery": 0, "battery_remaining": 100, "drop_rate_comm": 0, "errors_comm": 0, "errors_count1": 0, "errors_count2": 0, "errors_count3": 0, "errors_count4": 0}
Client (null) received PUBLISH (d0, q0, r0, m0, '/POWER_STATUS', ... (38 bytes))
{"Vcc": 5000, "Vservo": 0, "flags": 0}
Client (null) received PUBLISH (d0, q0, r0, m0, '/MEMINFO', ... (52 bytes))
{"brkval": 0, "freemem": 65535, "freemem32": 131072}
Client (null) received PUBLISH (d0, q0, r0, m0, '/NAV_CONTROLLER_OUTPUT', ... (204 bytes))
{"nav_roll": -0.00017957847740035504, "nav_pitch": 0.0003147004172205925, "nav_bearing": -8, "target_bearing": 0, "wp_dist": 0, "alt_error": 0.00029629855998791754, "aspd_error": 0.0, "xtrack_error": 0.0}
Client (null) received PUBLISH (d0, q0, r0, m0, '/MISSION_CURRENT', ... (61 bytes))
{"seq": 0, "total": 0, "mission_state": 0, "mission_mode": 0}
Client (null) received PUBLISH (d0, q0, r0, m0, '/VFR_HUD', ... (144 bytes))
{"airspeed": 0.0, "groundspeed": 0.024068797007203102, "heading": 351, "throttle": 0, "alt": 584.0599975585938, "climb": -0.0001782741310307756}
Client (null) received PUBLISH (d0, q0, r0, m0, '/SERVO_OUTPUT_RAW', ... (326 bytes))
{"time_usec": 555101204, "port": 0, "servo1_raw": 1000, "servo2_raw": 1000, "servo3_raw": 1000, "servo4_raw": 1000, "servo5_raw": 0, "servo6_raw": 0, "servo7_raw": 0, "servo8_raw": 0, "servo9_raw": 0, "servo10_raw": 0, "servo11_raw": 0, "servo12_raw": 0, "servo13_raw": 0, "servo14_raw": 0, "servo15_raw": 0, "servo16_raw": 0}
Client (null) received PUBLISH (d0, q0, r0, m0, '/RC_CHANNELS', ... (375 bytes))
{"time_boot_ms": 555101, "chancount": 16, "chan1_raw": 1500, "chan2_raw": 1500, "chan3_raw": 1000, "chan4_raw": 1500, "chan5_raw": 1800, "chan6_raw": 1000, "chan7_raw": 1000, "chan8_raw": 1800, "chan9_raw": 0, "chan10_raw": 0, "chan11_raw": 0, "chan12_raw": 0, "chan13_raw": 0, "chan14_raw": 0, "chan15_raw": 0, "chan16_raw": 0, "chan17_raw": 0, "chan18_raw": 0, "rssi": 255}
Client (null) received PUBLISH (d0, q0, r0, m0, '/RAW_IMU', ... (166 bytes))
{"time_usec": 555101204, "xacc": 0, "yacc": 0, "zacc": -1001, "xgyro": 0, "ygyro": 0, "zgyro": 0, "xmag": 224, "ymag": 80, "zmag": -528, "id": 0, "temperature": 4183}
Client (null) received PUBLISH (d0, q0, r0, m0, '/SCALED_IMU2', ... (157 bytes))
{"time_boot_ms": 555101, "xacc": 0, "yacc": 0, "zacc": -1001, "xgyro": 0, "ygyro": 0, "zgyro": 0, "xmag": 224, "ymag": 80, "zmag": -528, "temperature": 4183}
Client (null) received PUBLISH (d0, q0, r0, m0, '/SCALED_IMU3', ... (150 bytes))
{"time_boot_ms": 555101, "xacc": 0, "yacc": 0, "zacc": 0, "xgyro": 0, "ygyro": 0, "zgyro": 0, "xmag": 224, "ymag": 80, "zmag": -528, "temperature": 0}
Client (null) received PUBLISH (d0, q0, r0, m0, '/SCALED_PRESSURE', ... (125 bytes))
{"time_boot_ms": 555101, "press_abs": 945.0279541015625, "press_diff": 0.0, "temperature": 3120, "temperature_press_diff": 0}
Client (null) received PUBLISH (d0, q0, r0, m0, '/SCALED_PRESSURE2', ... (125 bytes))
{"time_boot_ms": 555101, "press_abs": 945.0201416015625, "press_diff": 0.0, "temperature": 3120, "temperature_press_diff": 0}
Client (null) received PUBLISH (d0, q0, r0, m0, '/GPS_RAW_INT', ... (254 bytes))
{"time_usec": 554967000, "fix_type": 6, "lat": -353632621, "lon": 1491652374, "alt": 584090, "eph": 121, "epv": 200, "vel": 0, "cog": 0, "satellites_visible": 10, "alt_ellipsoid": 584090, "h_acc": 300, "v_acc": 300, "vel_acc": 40, "hdg_acc": 0, "yaw": 0}
Client (null) received PUBLISH (d0, q0, r0, m0, '/SYSTEM_TIME', ... (60 bytes))
{"time_unix_usec": 1719974161933909, "time_boot_ms": 555101}
Client (null) received PUBLISH (d0, q0, r0, m0, '/AHRS', ... (214 bytes))
{"omegaIx": -0.0008359052008017898, "omegaIy": -0.0008997414843179286, "omegaIz": -0.0013921746285632253, "accel_weight": 0.0, "renorm_val": 0.0, "error_rp": 0.0023778846953064203, "error_yaw": 0.00141902978066355}
Client (null) received PUBLISH (d0, q0, r0, m0, '/SIMSTATE', ... (190 bytes))
{"roll": 0.0, "pitch": 0.0, "yaw": -0.12217313796281815, "xacc": 0.0, "yacc": 0.0, "zacc": -9.806650161743164, "xgyro": 0.0, "ygyro": 0.0, "zgyro": 0.0, "lat": -353632621, "lng": 1491652374}
Client (null) received PUBLISH (d0, q0, r0, m0, '/AHRS2', ... (161 bytes))
{"roll": -0.001558956690132618, "pitch": -0.001804873114451766, "yaw": -0.11902251094579697, "altitude": 584.0899658203125, "lat": -353632621, "lng": 1491652374}
Client (null) received PUBLISH (d0, q0, r0, m0, '/HWSTATUS', ... (26 bytes))
{"Vcc": 5000, "I2Cerr": 0}
Client (null) received PUBLISH (d0, q0, r0, m0, '/TERRAIN_REPORT', ... (160 bytes))
{"lat": -353632620, "lon": 1491652373, "spacing": 100, "terrain_height": 583.843994140625, "current_height": -0.030122069641947746, "pending": 0, "loaded": 504}
Client (null) received PUBLISH (d0, q0, r0, m0, '/EKF_STATUS_REPORT', ... (242 bytes))
{"flags": 831, "velocity_variance": 0.008837196044623852, "pos_horiz_variance": 0.0051500797271728516, "pos_vert_variance": 2.888796734623611e-05, "compass_variance": 0.01389668881893158, "terrain_alt_variance": 0.0, "airspeed_variance": 0.0}
Client (null) received PUBLISH (d0, q0, r0, m0, '/LOCAL_POSITION_NED', ... (193 bytes))
{"time_boot_ms": 555101, "x": 0.011476398445665836, "y": -0.014988856390118599, "z": 0.00029629855998791754, "vx": 0.014668762683868408, "vy": -0.01908230595290661, "vz": 0.0001782741310307756}
Client (null) received PUBLISH (d0, q0, r0, m0, '/VIBRATION', ... (188 bytes))
{"time_usec": 555101204, "vibration_x": 0.0025933226570487022, "vibration_y": 0.002952645532786846, "vibration_z": 0.0031987654510885477, "clipping_0": 0, "clipping_1": 0, "clipping_2": 0}
Client (null) received PUBLISH (d0, q0, r0, m0, '/BATTERY_STATUS', ... (347 bytes))
{"id": 0, "battery_function": 0, "type": 0, "temperature": 32767, "voltages": "[12587, 65535, 65535, 65535, 65535, 65535, 65535, 65535, 65535, 65535]", "current_battery": 0, "current_consumed": 0, "energy_consumed": 0, "battery_remaining": 100, "time_remaining": 0, "charge_state": 1, "voltages_ext": "[0, 0, 0, 0]", "mode": 0, "fault_bitmask": 0}
Client (null) received PUBLISH (d0, q0, r0, m0, '/ATTITUDE', ... (230 bytes))
{"time_boot_ms": 555351, "roll": -0.0010225787991657853, "pitch": -0.0012617461616173387, "yaw": -0.1401369869709015, "rollspeed": -0.00025282794376835227, "pitchspeed": -0.00028776907129213214, "yawspeed": -0.0008322859648615122}
Client (null) received PUBLISH (d0, q0, r0, m0, '/GLOBAL_POSITION_INT', ... (140 bytes))
{"time_boot_ms": 555351, "lat": -353632620, "lon": 1491652373, "alt": 584060, "relative_alt": -20, "vx": 1, "vy": -1, "vz": 0, "hdg": 35198}
Client (null) received PUBLISH (d0, q0, r0, m0, '/SYS_STATUS', ... (344 bytes))
{"onboard_control_sensors_present": 1399979055, "onboard_control_sensors_enabled": 1382128687, "onboard_control_sensors_health": 1399954479, "load": 0, "voltage_battery": 12587, "current_battery": 0, "battery_remaining": 100, "drop_rate_comm": 0, "errors_comm": 0, "errors_count1": 0, "errors_count2": 0, "errors_count3": 0, "errors_count4": 0}
Client (null) received PUBLISH (d0, q0, r0, m0, '/POWER_STATUS', ... (38 bytes))
{"Vcc": 5000, "Vservo": 0, "flags": 0}
Client (null) received PUBLISH (d0, q0, r0, m0, '/MEMINFO', ... (52 bytes))
{"brkval": 0, "freemem": 65535, "freemem32": 131072}
Client (null) received PUBLISH (d0, q0, r0, m0, '/NAV_CONTROLLER_OUTPUT', ... (204 bytes))
{"nav_roll": -0.00017957844829652458, "nav_pitch": 0.00031470032990910113, "nav_bearing": -8, "target_bearing": 0, "wp_dist": 0, "alt_error": 0.0002834862971212715, "aspd_error": 0.0, "xtrack_error": 0.0}
Client (null) received PUBLISH (d0, q0, r0, m0, '/MISSION_CURRENT', ... (61 bytes))
{"seq": 0, "total": 0, "mission_state": 0, "mission_mode": 0}
Client (null) received PUBLISH (d0, q0, r0, m0, '/VFR_HUD', ... (144 bytes))
{"airspeed": 0.0, "groundspeed": 0.02417837455868721, "heading": 351, "throttle": 0, "alt": 584.0599975585938, "climb": -0.00011252893455093727}
Client (null) received PUBLISH (d0, q0, r0, m0, '/SERVO_OUTPUT_RAW', ... (326 bytes))
{"time_usec": 555351104, "port": 0, "servo1_raw": 1000, "servo2_raw": 1000, "servo3_raw": 1000, "servo4_raw": 1000, "servo5_raw": 0, "servo6_raw": 0, "servo7_raw": 0, "servo8_raw": 0, "servo9_raw": 0, "servo10_raw": 0, "servo11_raw": 0, "servo12_raw": 0, "servo13_raw": 0, "servo14_raw": 0, "servo15_raw": 0, "servo16_raw": 0}
Client (null) received PUBLISH (d0, q0, r0, m0, '/RC_CHANNELS', ... (375 bytes))
{"time_boot_ms": 555351, "chancount": 16, "chan1_raw": 1500, "chan2_raw": 1500, "chan3_raw": 1000, "chan4_raw": 1500, "chan5_raw": 1800, "chan6_raw": 1000, "chan7_raw": 1000, "chan8_raw": 1800, "chan9_raw": 0, "chan10_raw": 0, "chan11_raw": 0, "chan12_raw": 0, "chan13_raw": 0, "chan14_raw": 0, "chan15_raw": 0, "chan16_raw": 0, "chan17_raw": 0, "chan18_raw": 0, "rssi": 255}
Client (null) received PUBLISH (d0, q0, r0, m0, '/RAW_IMU', ... (166 bytes))
{"time_usec": 555351104, "xacc": 0, "yacc": 0, "zacc": -1001, "xgyro": 0, "ygyro": 0, "zgyro": 0, "xmag": 224, "ymag": 80, "zmag": -528, "id": 0, "temperature": 4184}
Client (null) received PUBLISH (d0, q0, r0, m0, '/SCALED_IMU2', ... (157 bytes))
{"time_boot_ms": 555351, "xacc": 0, "yacc": 0, "zacc": -1001, "xgyro": 0, "ygyro": 0, "zgyro": 0, "xmag": 224, "ymag": 80, "zmag": -528, "temperature": 4184}
Client (null) received PUBLISH (d0, q0, r0, m0, '/SCALED_IMU3', ... (150 bytes))
{"time_boot_ms": 555351, "xacc": 0, "yacc": 0, "zacc": 0, "xgyro": 0, "ygyro": 0, "zgyro": 0, "xmag": 224, "ymag": 80, "zmag": -528, "temperature": 0}
Client (null) received PUBLISH (d0, q0, r0, m0, '/SCALED_PRESSURE', ... (125 bytes))
{"time_boot_ms": 555351, "press_abs": 945.0279541015625, "press_diff": 0.0, "temperature": 3120, "temperature_press_diff": 0}
Client (null) received PUBLISH (d0, q0, r0, m0, '/SCALED_PRESSURE2', ... (124 bytes))
{"time_boot_ms": 555351, "press_abs": 945.018310546875, "press_diff": 0.0, "temperature": 3120, "temperature_press_diff": 0}
Client (null) received PUBLISH (d0, q0, r0, m0, '/GPS_RAW_INT', ... (254 bytes))
{"time_usec": 555167000, "fix_type": 6, "lat": -353632621, "lon": 1491652374, "alt": 584090, "eph": 121, "epv": 200, "vel": 0, "cog": 0, "satellites_visible": 10, "alt_ellipsoid": 584090, "h_acc": 300, "v_acc": 300, "vel_acc": 40, "hdg_acc": 0, "yaw": 0}
Client (null) received PUBLISH (d0, q0, r0, m0, '/SYSTEM_TIME', ... (60 bytes))
{"time_unix_usec": 1719974162183809, "time_boot_ms": 555351}
Client (null) received PUBLISH (d0, q0, r0, m0, '/AHRS', ... (212 bytes))
{"omegaIx": -0.0008330465643666685, "omegaIy": -0.0008968068286776543, "omegaIz": -0.00138782465364784, "accel_weight": 0.0, "renorm_val": 0.0, "error_rp": 0.002376178978011012, "error_yaw": 0.001425078371539712}
Client (null) received PUBLISH (d0, q0, r0, m0, '/SIMSTATE', ... (190 bytes))
{"roll": 0.0, "pitch": 0.0, "yaw": -0.12217313796281815, "xacc": 0.0, "yacc": 0.0, "zacc": -9.806650161743164, "xgyro": 0.0, "ygyro": 0.0, "zgyro": 0.0, "lat": -353632621, "lng": 1491652374}
Client (null) received PUBLISH (d0, q0, r0, m0, '/AHRS2', ... (163 bytes))
{"roll": -0.0015618772013112903, "pitch": -0.0018255679169669747, "yaw": -0.11903217434883118, "altitude": 584.0899658203125, "lat": -353632621, "lng": 1491652374}
Client (null) received PUBLISH (d0, q0, r0, m0, '/HWSTATUS', ... (26 bytes))
{"Vcc": 5000, "I2Cerr": 0}
Client (null) received PUBLISH (d0, q0, r0, m0, '/TERRAIN_REPORT', ... (160 bytes))
{"lat": -353632620, "lon": 1491652373, "spacing": 100, "terrain_height": 583.843994140625, "current_height": -0.030122069641947746, "pending": 0, "loaded": 504}
Client (null) received PUBLISH (d0, q0, r0, m0, '/EKF_STATUS_REPORT', ... (242 bytes))
{"flags": 831, "velocity_variance": 0.008849437348544598, "pos_horiz_variance": 0.005143546964973211, "pos_vert_variance": 2.744219273154158e-05, "compass_variance": 0.013842194341123104, "terrain_alt_variance": 0.0, "airspeed_variance": 0.0}
Client (null) received PUBLISH (d0, q0, r0, m0, '/LOCAL_POSITION_NED', ... (193 bytes))
{"time_boot_ms": 555351, "x": 0.011583308689296246, "y": -0.01510495226830244, "z": 0.0002834862971212715, "vx": 0.014807711355388165, "vy": -0.019113488495349884, "vz": 0.00011252893455093727}
Client (null) received PUBLISH (d0, q0, r0, m0, '/VIBRATION', ... (188 bytes))
{"time_usec": 555351104, "vibration_x": 0.0030914663802832365, "vibration_y": 0.0026808178517967463, "vibration_z": 0.002800234593451023, "clipping_0": 0, "clipping_1": 0, "clipping_2": 0}
Client (null) received PUBLISH (d0, q0, r0, m0, '/BATTERY_STATUS', ... (347 bytes))
{"id": 0, "battery_function": 0, "type": 0, "temperature": 32767, "voltages": "[12587, 65535, 65535, 65535, 65535, 65535, 65535, 65535, 65535, 65535]", "current_battery": 0, "current_consumed": 0, "energy_consumed": 0, "battery_remaining": 100, "time_remaining": 0, "charge_state": 1, "voltages_ext": "[0, 0, 0, 0]", "mode": 0, "fault_bitmask": 0}
Client (null) received PUBLISH (d0, q0, r0, m0, '/ATTITUDE', ... (228 bytes))
{"time_boot_ms": 555601, "roll": -0.001027375808916986, "pitch": -0.001276011229492724, "yaw": -0.14013634622097015, "rollspeed": -0.00017721665790304542, "pitchspeed": -0.0003358839894644916, "yawspeed": -0.0007204432040452957}
Client (null) received PUBLISH (d0, q0, r0, m0, '/GLOBAL_POSITION_INT', ... (140 bytes))
{"time_boot_ms": 555601, "lat": -353632620, "lon": 1491652373, "alt": 584060, "relative_alt": -20, "vx": 1, "vy": -1, "vz": 0, "hdg": 35198}
Client (null) received PUBLISH (d0, q0, r0, m0, '/SYS_STATUS', ... (344 bytes))
{"onboard_control_sensors_present": 1399979055, "onboard_control_sensors_enabled": 1382128687, "onboard_control_sensors_health": 1399954479, "load": 0, "voltage_battery": 12587, "current_battery": 0, "battery_remaining": 100, "drop_rate_comm": 0, "errors_comm": 0, "errors_count1": 0, "errors_count2": 0, "errors_count3": 0, "errors_count4": 0}
Client (null) received PUBLISH (d0, q0, r0, m0, '/POWER_STATUS', ... (38 bytes))
{"Vcc": 5000, "Vservo": 0, "flags": 0}
Client (null) received PUBLISH (d0, q0, r0, m0, '/MEMINFO', ... (52 bytes))
{"brkval": 0, "freemem": 65535, "freemem32": 131072}
Client (null) received PUBLISH (d0, q0, r0, m0, '/NAV_CONTROLLER_OUTPUT', ... (203 bytes))
{"nav_roll": -0.00017957844829652458, "nav_pitch": 0.0003147003590129316, "nav_bearing": -8, "target_bearing": 0, "wp_dist": 0, "alt_error": 0.0002650659007485956, "aspd_error": 0.0, "xtrack_error": 0.0}
Client (null) received PUBLISH (d0, q0, r0, m0, '/MISSION_CURRENT', ... (61 bytes))
{"seq": 0, "total": 0, "mission_state": 0, "mission_mode": 0}
Client (null) received PUBLISH (d0, q0, r0, m0, '/VFR_HUD', ... (145 bytes))
{"airspeed": 0.0, "groundspeed": 0.024369509890675545, "heading": 351, "throttle": 0, "alt": 584.0599975585938, "climb": -0.00010469339758856222}
Client (null) received PUBLISH (d0, q0, r0, m0, '/SERVO_OUTPUT_RAW', ... (326 bytes))
{"time_usec": 555601004, "port": 0, "servo1_raw": 1000, "servo2_raw": 1000, "servo3_raw": 1000, "servo4_raw": 1000, "servo5_raw": 0, "servo6_raw": 0, "servo7_raw": 0, "servo8_raw": 0, "servo9_raw": 0, "servo10_raw": 0, "servo11_raw": 0, "servo12_raw": 0, "servo13_raw": 0, "servo14_raw": 0, "servo15_raw": 0, "servo16_raw": 0}
Client (null) received PUBLISH (d0, q0, r0, m0, '/RC_CHANNELS', ... (375 bytes))
{"time_boot_ms": 555601, "chancount": 16, "chan1_raw": 1500, "chan2_raw": 1500, "chan3_raw": 1000, "chan4_raw": 1500, "chan5_raw": 1800, "chan6_raw": 1000, "chan7_raw": 1000, "chan8_raw": 1800, "chan9_raw": 0, "chan10_raw": 0, "chan11_raw": 0, "chan12_raw": 0, "chan13_raw": 0, "chan14_raw": 0, "chan15_raw": 0, "chan16_raw": 0, "chan17_raw": 0, "chan18_raw": 0, "rssi": 255}
Client (null) received PUBLISH (d0, q0, r0, m0, '/RAW_IMU', ... (166 bytes))
{"time_usec": 555601004, "xacc": 0, "yacc": 0, "zacc": -1001, "xgyro": 0, "ygyro": 0, "zgyro": 0, "xmag": 224, "ymag": 80, "zmag": -528, "id": 0, "temperature": 4184}
Client (null) received PUBLISH (d0, q0, r0, m0, '/SCALED_IMU2', ... (157 bytes))
{"time_boot_ms": 555601, "xacc": 0, "yacc": 0, "zacc": -1000, "xgyro": 0, "ygyro": 0, "zgyro": 0, "xmag": 224, "ymag": 80, "zmag": -528, "temperature": 4184}
Client (null) received PUBLISH (d0, q0, r0, m0, '/SCALED_IMU3', ... (150 bytes))
{"time_boot_ms": 555601, "xacc": 0, "yacc": 0, "zacc": 0, "xgyro": 0, "ygyro": 0, "zgyro": 0, "xmag": 224, "ymag": 80, "zmag": -528, "temperature": 0}
Client (null) received PUBLISH (d0, q0, r0, m0, '/SCALED_PRESSURE', ... (125 bytes))
{"time_boot_ms": 555601, "press_abs": 945.0279541015625, "press_diff": 0.0, "temperature": 3120, "temperature_press_diff": 0}
Client (null) received PUBLISH (d0, q0, r0, m0, '/SCALED_PRESSURE2', ... (125 bytes))
{"time_boot_ms": 555601, "press_abs": 945.0504760742188, "press_diff": 0.0, "temperature": 3120, "temperature_press_diff": 0}
Client (null) received PUBLISH (d0, q0, r0, m0, '/GPS_RAW_INT', ... (254 bytes))
{"time_usec": 555367000, "fix_type": 6, "lat": -353632621, "lon": 1491652374, "alt": 584090, "eph": 121, "epv": 200, "vel": 0, "cog": 0, "satellites_visible": 10, "alt_ellipsoid": 584090, "h_acc": 300, "v_acc": 300, "vel_acc": 40, "hdg_acc": 0, "yaw": 0}
Client (null) received PUBLISH (d0, q0, r0, m0, '/SYSTEM_TIME', ... (60 bytes))
{"time_unix_usec": 1719974162433709, "time_boot_ms": 555601}
Client (null) received PUBLISH (d0, q0, r0, m0, '/AHRS', ... (215 bytes))
{"omegaIx": -0.0008300582994706929, "omegaIy": -0.0008937264792621136, "omegaIz": -0.0013847192749381065, "accel_weight": 0.0, "renorm_val": 0.0, "error_rp": 0.002372203627601266, "error_yaw": 0.0014485788997262716}
Client (null) received PUBLISH (d0, q0, r0, m0, '/SIMSTATE', ... (190 bytes))
{"roll": 0.0, "pitch": 0.0, "yaw": -0.12217313796281815, "xacc": 0.0, "yacc": 0.0, "zacc": -9.806650161743164, "xgyro": 0.0, "ygyro": 0.0, "zgyro": 0.0, "lat": -353632621, "lng": 1491652374}
Client (null) received PUBLISH (d0, q0, r0, m0, '/AHRS2', ... (162 bytes))
{"roll": -0.0015679682837799191, "pitch": -0.0018358834786340594, "yaw": -0.1190449520945549, "altitude": 584.0899658203125, "lat": -353632621, "lng": 1491652374}
Client (null) received PUBLISH (d0, q0, r0, m0, '/HWSTATUS', ... (26 bytes))
{"Vcc": 5000, "I2Cerr": 0}
Client (null) received PUBLISH (d0, q0, r0, m0, '/TERRAIN_REPORT', ... (160 bytes))
{"lat": -353632620, "lon": 1491652373, "spacing": 100, "terrain_height": 583.843994140625, "current_height": -0.030122069641947746, "pending": 0, "loaded": 504}
Client (null) received PUBLISH (d0, q0, r0, m0, '/EKF_STATUS_REPORT', ... (241 bytes))
{"flags": 831, "velocity_variance": 0.008847065269947052, "pos_horiz_variance": 0.005133837927132845, "pos_vert_variance": 2.663212944753468e-05, "compass_variance": 0.01383589580655098, "terrain_alt_variance": 0.0, "airspeed_variance": 0.0}
Client (null) received PUBLISH (d0, q0, r0, m0, '/LOCAL_POSITION_NED', ... (194 bytes))
{"time_boot_ms": 555601, "x": 0.011804760433733463, "y": -0.015357159078121185, "z": 0.0002650659007485956, "vx": 0.014948070049285889, "vy": -0.019246511161327362, "vz": 0.00010469339758856222}
Client (null) received PUBLISH (d0, q0, r0, m0, '/VIBRATION', ... (189 bytes))
{"time_usec": 555601004, "vibration_x": 0.0029395665042102337, "vibration_y": 0.0030670068226754665, "vibration_z": 0.0031681456603109837, "clipping_0": 0, "clipping_1": 0, "clipping_2": 0}
Client (null) received PUBLISH (d0, q0, r0, m0, '/BATTERY_STATUS', ... (347 bytes))
{"id": 0, "battery_function": 0, "type": 0, "temperature": 32767, "voltages": "[12587, 65535, 65535, 65535, 65535, 65535, 65535, 65535, 65535, 65535]", "current_battery": 0, "current_consumed": 0, "energy_consumed": 0, "battery_remaining": 100, "time_remaining": 0, "charge_state": 1, "voltages_ext": "[0, 0, 0, 0]", "mode": 0, "fault_bitmask": 0}
Client (null) received PUBLISH (d0, q0, r0, m0, '/ATTITUDE', ... (231 bytes))
{"time_boot_ms": 555853, "roll": -0.0010246903402730823, "pitch": -0.0012717454228550196, "yaw": -0.14013433456420898, "rollspeed": -0.00021864433074370027, "pitchspeed": -0.00026771839475259185, "yawspeed": -0.0007800271851010621}
Client (null) received PUBLISH (d0, q0, r0, m0, '/GLOBAL_POSITION_INT', ... (140 bytes))
{"time_boot_ms": 555853, "lat": -353632620, "lon": 1491652373, "alt": 584060, "relative_alt": -20, "vx": 1, "vy": -1, "vz": 0, "hdg": 35198}
Client (null) received PUBLISH (d0, q0, r0, m0, '/SYS_STATUS', ... (344 bytes))
{"onboard_control_sensors_present": 1399979055, "onboard_control_sensors_enabled": 1382128687, "onboard_control_sensors_health": 1399954479, "load": 0, "voltage_battery": 12587, "current_battery": 0, "battery_remaining": 100, "drop_rate_comm": 0, "errors_comm": 0, "errors_count1": 0, "errors_count2": 0, "errors_count3": 0, "errors_count4": 0}
Client (null) received PUBLISH (d0, q0, r0, m0, '/POWER_STATUS', ... (38 bytes))
{"Vcc": 5000, "Vservo": 0, "flags": 0}
Client (null) received PUBLISH (d0, q0, r0, m0, '/MEMINFO', ... (52 bytes))
{"brkval": 0, "freemem": 65535, "freemem32": 131072}
Client (null) received PUBLISH (d0, q0, r0, m0, '/NAV_CONTROLLER_OUTPUT', ... (204 bytes))
{"nav_roll": -0.00017957844829652458, "nav_pitch": 0.0003147003590129316, "nav_bearing": -8, "target_bearing": 0, "wp_dist": 0, "alt_error": 0.00025926707894541323, "aspd_error": 0.0, "xtrack_error": 0.0}
Client (null) received PUBLISH (d0, q0, r0, m0, '/MISSION_CURRENT', ... (61 bytes))
{"seq": 0, "total": 0, "mission_state": 0, "mission_mode": 0}
Client (null) received PUBLISH (d0, q0, r0, m0, '/VFR_HUD', ... (144 bytes))
{"airspeed": 0.0, "groundspeed": 0.02399737574160099, "heading": 351, "throttle": 0, "alt": 584.0599975585938, "climb": -0.00018191483104601502}
Client (null) received PUBLISH (d0, q0, r0, m0, '/SERVO_OUTPUT_RAW', ... (326 bytes))
{"time_usec": 555853403, "port": 0, "servo1_raw": 1000, "servo2_raw": 1000, "servo3_raw": 1000, "servo4_raw": 1000, "servo5_raw": 0, "servo6_raw": 0, "servo7_raw": 0, "servo8_raw": 0, "servo9_raw": 0, "servo10_raw": 0, "servo11_raw": 0, "servo12_raw": 0, "servo13_raw": 0, "servo14_raw": 0, "servo15_raw": 0, "servo16_raw": 0}
Client (null) received PUBLISH (d0, q0, r0, m0, '/RC_CHANNELS', ... (375 bytes))
{"time_boot_ms": 555853, "chancount": 16, "chan1_raw": 1500, "chan2_raw": 1500, "chan3_raw": 1000, "chan4_raw": 1500, "chan5_raw": 1800, "chan6_raw": 1000, "chan7_raw": 1000, "chan8_raw": 1800, "chan9_raw": 0, "chan10_raw": 0, "chan11_raw": 0, "chan12_raw": 0, "chan13_raw": 0, "chan14_raw": 0, "chan15_raw": 0, "chan16_raw": 0, "chan17_raw": 0, "chan18_raw": 0, "rssi": 255}
Client (null) received PUBLISH (d0, q0, r0, m0, '/RAW_IMU', ... (166 bytes))
{"time_usec": 555853403, "xacc": 0, "yacc": 0, "zacc": -1001, "xgyro": 0, "ygyro": 0, "zgyro": 0, "xmag": 224, "ymag": 80, "zmag": -528, "id": 0, "temperature": 4184}
Client (null) received PUBLISH (d0, q0, r0, m0, '/SCALED_IMU2', ... (157 bytes))
{"time_boot_ms": 555853, "xacc": 0, "yacc": 0, "zacc": -1001, "xgyro": 0, "ygyro": 0, "zgyro": 0, "xmag": 224, "ymag": 80, "zmag": -528, "temperature": 4184}
Client (null) received PUBLISH (d0, q0, r0, m0, '/SCALED_IMU3', ... (150 bytes))
{"time_boot_ms": 555853, "xacc": 0, "yacc": 0, "zacc": 0, "xgyro": 0, "ygyro": 0, "zgyro": 0, "xmag": 224, "ymag": 80, "zmag": -528, "temperature": 0}
Client (null) received PUBLISH (d0, q0, r0, m0, '/SCALED_PRESSURE', ... (125 bytes))
{"time_boot_ms": 555853, "press_abs": 945.0279541015625, "press_diff": 0.0, "temperature": 3120, "temperature_press_diff": 0}
Client (null) received PUBLISH (d0, q0, r0, m0, '/SCALED_PRESSURE2', ... (125 bytes))
{"time_boot_ms": 555853, "press_abs": 945.0297241210938, "press_diff": 0.0, "temperature": 3120, "temperature_press_diff": 0}
Client (null) received PUBLISH (d0, q0, r0, m0, '/GPS_RAW_INT', ... (254 bytes))
{"time_usec": 555767000, "fix_type": 6, "lat": -353632621, "lon": 1491652374, "alt": 584090, "eph": 121, "epv": 200, "vel": 0, "cog": 0, "satellites_visible": 10, "alt_ellipsoid": 584090, "h_acc": 300, "v_acc": 300, "vel_acc": 40, "hdg_acc": 0, "yaw": 0}
Client (null) received PUBLISH (d0, q0, r0, m0, '/SYSTEM_TIME', ... (60 bytes))
{"time_unix_usec": 1719974162686108, "time_boot_ms": 555853}
Client (null) received PUBLISH (d0, q0, r0, m0, '/AHRS', ... (215 bytes))
{"omegaIx": -0.0008268493693321943, "omegaIy": -0.0008905375725589693, "omegaIz": -0.0013846515212208033, "accel_weight": 0.0, "renorm_val": 0.0, "error_rp": 0.002387693850323558, "error_yaw": 0.0014743553474545479}
Client (null) received PUBLISH (d0, q0, r0, m0, '/SIMSTATE', ... (190 bytes))
{"roll": 0.0, "pitch": 0.0, "yaw": -0.12217313796281815, "xacc": 0.0, "yacc": 0.0, "zacc": -9.806650161743164, "xgyro": 0.0, "ygyro": 0.0, "zgyro": 0.0, "lat": -353632621, "lng": 1491652374}
Client (null) received PUBLISH (d0, q0, r0, m0, '/AHRS2', ... (161 bytes))
{"roll": -0.00158068654127419, "pitch": -0.0018461483996361494, "yaw": -0.11906465142965317, "altitude": 584.0899658203125, "lat": -353632621, "lng": 1491652374}
Client (null) received PUBLISH (d0, q0, r0, m0, '/HWSTATUS', ... (26 bytes))
{"Vcc": 5000, "I2Cerr": 0}
Client (null) received PUBLISH (d0, q0, r0, m0, '/TERRAIN_REPORT', ... (160 bytes))
{"lat": -353632620, "lon": 1491652373, "spacing": 100, "terrain_height": 583.843994140625, "current_height": -0.030122069641947746, "pending": 0, "loaded": 504}
Client (null) received PUBLISH (d0, q0, r0, m0, '/EKF_STATUS_REPORT', ... (242 bytes))
{"flags": 831, "velocity_variance": 0.008890804834663868, "pos_horiz_variance": 0.005195314530283213, "pos_vert_variance": 2.633282019814942e-05, "compass_variance": 0.013893968425691128, "terrain_alt_variance": 0.0, "airspeed_variance": 0.0}
Client (null) received PUBLISH (d0, q0, r0, m0, '/LOCAL_POSITION_NED', ... (192 bytes))
{"time_boot_ms": 555853, "x": 0.01155794132500887, "y": -0.0149861304089427, "z": 0.00025926707894541323, "vx": 0.014773031696677208, "vy": -0.018911149352788925, "vz": 0.00018191483104601502}
Client (null) received PUBLISH (d0, q0, r0, m0, '/VIBRATION', ... (188 bytes))
{"time_usec": 555853403, "vibration_x": 0.0029143451247364283, "vibration_y": 0.002670410554856062, "vibration_z": 0.0029881419613957405, "clipping_0": 0, "clipping_1": 0, "clipping_2": 0}
Client (null) received PUBLISH (d0, q0, r0, m0, '/BATTERY_STATUS', ... (347 bytes))
{"id": 0, "battery_function": 0, "type": 0, "temperature": 32767, "voltages": "[12587, 65535, 65535, 65535, 65535, 65535, 65535, 65535, 65535, 65535]", "current_battery": 0, "current_consumed": 0, "energy_consumed": 0, "battery_remaining": 100, "time_remaining": 0, "charge_state": 1, "voltages_ext": "[0, 0, 0, 0]", "mode": 0, "fault_bitmask": 0}
Client (null) received PUBLISH (d0, q0, r0, m0, '/HEARTBEAT', ... (104 bytes))
{"type": 2, "autopilot": 3, "base_mode": 81, "custom_mode": 0, "system_status": 3, "mavlink_version": 3}
Client (null) received PUBLISH (d0, q0, r0, m0, '/ATTITUDE', ... (228 bytes))
{"time_boot_ms": 556103, "roll": -0.0010208470048382878, "pitch": -0.0012685487745329738, "yaw": -0.14013613760471344, "rollspeed": -0.000256420171353966, "pitchspeed": -0.0003011818043887615, "yawspeed": -0.0007933181477710605}
Client (null) received PUBLISH (d0, q0, r0, m0, '/GLOBAL_POSITION_INT', ... (140 bytes))
{"time_boot_ms": 556103, "lat": -353632620, "lon": 1491652373, "alt": 584060, "relative_alt": -20, "vx": 1, "vy": -1, "vz": 0, "hdg": 35198}
Client (null) received PUBLISH (d0, q0, r0, m0, '/SYS_STATUS', ... (344 bytes))
{"onboard_control_sensors_present": 1399979055, "onboard_control_sensors_enabled": 1382128687, "onboard_control_sensors_health": 1399954479, "load": 0, "voltage_battery": 12587, "current_battery": 0, "battery_remaining": 100, "drop_rate_comm": 0, "errors_comm": 0, "errors_count1": 0, "errors_count2": 0, "errors_count3": 0, "errors_count4": 0}
Client (null) received PUBLISH (d0, q0, r0, m0, '/POWER_STATUS', ... (38 bytes))
{"Vcc": 5000, "Vservo": 0, "flags": 0}
Client (null) received PUBLISH (d0, q0, r0, m0, '/MEMINFO', ... (52 bytes))
{"brkval": 0, "freemem": 65535, "freemem32": 131072}
Client (null) received PUBLISH (d0, q0, r0, m0, '/NAV_CONTROLLER_OUTPUT', ... (204 bytes))
{"nav_roll": -0.00017957844829652458, "nav_pitch": 0.0003147004172205925, "nav_bearing": -8, "target_bearing": 0, "wp_dist": 0, "alt_error": 0.00026106537552550435, "aspd_error": 0.0, "xtrack_error": 0.0}
Client (null) received PUBLISH (d0, q0, r0, m0, '/MISSION_CURRENT', ... (61 bytes))
{"seq": 0, "total": 0, "mission_state": 0, "mission_mode": 0}
Client (null) received PUBLISH (d0, q0, r0, m0, '/VFR_HUD', ... (144 bytes))
{"airspeed": 0.0, "groundspeed": 0.02396036870777607, "heading": 351, "throttle": 0, "alt": 584.0599975585938, "climb": -0.00016840215539559722}
Client (null) received PUBLISH (d0, q0, r0, m0, '/SERVO_OUTPUT_RAW', ... (326 bytes))
{"time_usec": 556103303, "port": 0, "servo1_raw": 1000, "servo2_raw": 1000, "servo3_raw": 1000, "servo4_raw": 1000, "servo5_raw": 0, "servo6_raw": 0, "servo7_raw": 0, "servo8_raw": 0, "servo9_raw": 0, "servo10_raw": 0, "servo11_raw": 0, "servo12_raw": 0, "servo13_raw": 0, "servo14_raw": 0, "servo15_raw": 0, "servo16_raw": 0}
Client (null) received PUBLISH (d0, q0, r0, m0, '/RC_CHANNELS', ... (375 bytes))
{"time_boot_ms": 556103, "chancount": 16, "chan1_raw": 1500, "chan2_raw": 1500, "chan3_raw": 1000, "chan4_raw": 1500, "chan5_raw": 1800, "chan6_raw": 1000, "chan7_raw": 1000, "chan8_raw": 1800, "chan9_raw": 0, "chan10_raw": 0, "chan11_raw": 0, "chan12_raw": 0, "chan13_raw": 0, "chan14_raw": 0, "chan15_raw": 0, "chan16_raw": 0, "chan17_raw": 0, "chan18_raw": 0, "rssi": 255}
Client (null) received PUBLISH (d0, q0, r0, m0, '/RAW_IMU', ... (166 bytes))
{"time_usec": 556103303, "xacc": 0, "yacc": 0, "zacc": -1001, "xgyro": 0, "ygyro": 0, "zgyro": 0, "xmag": 224, "ymag": 80, "zmag": -528, "id": 0, "temperature": 4184}
Client (null) received PUBLISH (d0, q0, r0, m0, '/SCALED_IMU2', ... (157 bytes))
{"time_boot_ms": 556103, "xacc": 0, "yacc": 0, "zacc": -1001, "xgyro": 0, "ygyro": 0, "zgyro": 0, "xmag": 224, "ymag": 80, "zmag": -528, "temperature": 4184}
Client (null) received PUBLISH (d0, q0, r0, m0, '/SCALED_IMU3', ... (150 bytes))
{"time_boot_ms": 556103, "xacc": 0, "yacc": 0, "zacc": 0, "xgyro": 0, "ygyro": 0, "zgyro": 0, "xmag": 224, "ymag": 80, "zmag": -528, "temperature": 0}
Client (null) received PUBLISH (d0, q0, r0, m0, '/SCALED_PRESSURE', ... (125 bytes))
{"time_boot_ms": 556103, "press_abs": 945.0279541015625, "press_diff": 0.0, "temperature": 3120, "temperature_press_diff": 0}
Client (null) received PUBLISH (d0, q0, r0, m0, '/SCALED_PRESSURE2', ... (124 bytes))
{"time_boot_ms": 556103, "press_abs": 945.006591796875, "press_diff": 0.0, "temperature": 3120, "temperature_press_diff": 0}
Client (null) received PUBLISH (d0, q0, r0, m0, '/GPS_RAW_INT', ... (254 bytes))
{"time_usec": 555967000, "fix_type": 6, "lat": -353632621, "lon": 1491652374, "alt": 584090, "eph": 121, "epv": 200, "vel": 0, "cog": 0, "satellites_visible": 10, "alt_ellipsoid": 584090, "h_acc": 300, "v_acc": 300, "vel_acc": 40, "hdg_acc": 0, "yaw": 0}
Client (null) received PUBLISH (d0, q0, r0, m0, '/SYSTEM_TIME', ... (60 bytes))
{"time_unix_usec": 1719974162936008, "time_boot_ms": 556103}
Client (null) received PUBLISH (d0, q0, r0, m0, '/AHRS', ... (216 bytes))
{"omegaIx": -0.0008232106920331717, "omegaIy": -0.0008867139695212245, "omegaIz": -0.0013789701042696834, "accel_weight": 0.0, "renorm_val": 0.0, "error_rp": 0.0023919835221022367, "error_yaw": 0.0015184046933427453}
Client (null) received PUBLISH (d0, q0, r0, m0, '/SIMSTATE', ... (190 bytes))
{"roll": 0.0, "pitch": 0.0, "yaw": -0.12217313796281815, "xacc": 0.0, "yacc": 0.0, "zacc": -9.806650161743164, "xgyro": 0.0, "ygyro": 0.0, "zgyro": 0.0, "lat": -353632621, "lng": 1491652374}
Client (null) received PUBLISH (d0, q0, r0, m0, '/AHRS2', ... (163 bytes))
{"roll": -0.0015871599316596985, "pitch": -0.0018316360656172037, "yaw": -0.11906346678733826, "altitude": 584.0899658203125, "lat": -353632621, "lng": 1491652374}
Client (null) received PUBLISH (d0, q0, r0, m0, '/HWSTATUS', ... (26 bytes))
{"Vcc": 5000, "I2Cerr": 0}
Client (null) received PUBLISH (d0, q0, r0, m0, '/TERRAIN_REPORT', ... (160 bytes))
{"lat": -353632620, "lon": 1491652373, "spacing": 100, "terrain_height": 583.843994140625, "current_height": -0.030122069641947746, "pending": 0, "loaded": 504}
Client (null) received PUBLISH (d0, q0, r0, m0, '/EKF_STATUS_REPORT', ... (242 bytes))
{"flags": 831, "velocity_variance": 0.008837206289172173, "pos_horiz_variance": 0.005175219848752022, "pos_vert_variance": 2.528057484596502e-05, "compass_variance": 0.013832176104187965, "terrain_alt_variance": 0.0, "airspeed_variance": 0.0}
Client (null) received PUBLISH (d0, q0, r0, m0, '/LOCAL_POSITION_NED', ... (195 bytes))
{"time_boot_ms": 556103, "x": 0.011547273024916649, "y": -0.014932907186448574, "z": 0.00026106537552550435, "vx": 0.014725779183208942, "vy": -0.018901076167821884, "vz": 0.00016840215539559722}
Client (null) received PUBLISH (d0, q0, r0, m0, '/VIBRATION', ... (187 bytes))
{"time_usec": 556103303, "vibration_x": 0.0028486582450568676, "vibration_y": 0.0027747093699872494, "vibration_z": 0.00302440719678998, "clipping_0": 0, "clipping_1": 0, "clipping_2": 0}
Client (null) received PUBLISH (d0, q0, r0, m0, '/BATTERY_STATUS', ... (347 bytes))
{"id": 0, "battery_function": 0, "type": 0, "temperature": 32767, "voltages": "[12587, 65535, 65535, 65535, 65535, 65535, 65535, 65535, 65535, 65535]", "current_battery": 0, "current_consumed": 0, "energy_consumed": 0, "battery_remaining": 100, "time_remaining": 0, "charge_state": 1, "voltages_ext": "[0, 0, 0, 0]", "mode": 0, "fault_bitmask": 0}
Client (null) received PUBLISH (d0, q0, r0, m0, '/ATTITUDE', ... (230 bytes))
{"time_boot_ms": 556351, "roll": -0.0010215272195637226, "pitch": -0.0012640008935704827, "yaw": -0.14013142883777618, "rollspeed": -0.00019420869648456573, "pitchspeed": -0.0002474828506819904, "yawspeed": -0.0007525532273575664}
Client (null) received PUBLISH (d0, q0, r0, m0, '/GLOBAL_POSITION_INT', ... (140 bytes))
{"time_boot_ms": 556351, "lat": -353632620, "lon": 1491652373, "alt": 584060, "relative_alt": -20, "vx": 1, "vy": -1, "vz": 0, "hdg": 35198}
Client (null) received PUBLISH (d0, q0, r0, m0, '/SYS_STATUS', ... (344 bytes))
{"onboard_control_sensors_present": 1399979055, "onboard_control_sensors_enabled": 1382128687, "onboard_control_sensors_health": 1399954479, "load": 0, "voltage_battery": 12587, "current_battery": 0, "battery_remaining": 100, "drop_rate_comm": 0, "errors_comm": 0, "errors_count1": 0, "errors_count2": 0, "errors_count3": 0, "errors_count4": 0}
Client (null) received PUBLISH (d0, q0, r0, m0, '/POWER_STATUS', ... (38 bytes))
{"Vcc": 5000, "Vservo": 0, "flags": 0}
Client (null) received PUBLISH (d0, q0, r0, m0, '/MEMINFO', ... (52 bytes))
{"brkval": 0, "freemem": 65535, "freemem32": 131072}
Client (null) received PUBLISH (d0, q0, r0, m0, '/NAV_CONTROLLER_OUTPUT', ... (204 bytes))
{"nav_roll": -0.00017957841919269413, "nav_pitch": 0.00031470032990910113, "nav_bearing": -8, "target_bearing": 0, "wp_dist": 0, "alt_error": 0.0002586891350802034, "aspd_error": 0.0, "xtrack_error": 0.0}
Client (null) received PUBLISH (d0, q0, r0, m0, '/MISSION_CURRENT', ... (61 bytes))
{"seq": 0, "total": 0, "mission_state": 0, "mission_mode": 0}
Client (null) received PUBLISH (d0, q0, r0, m0, '/VFR_HUD', ... (145 bytes))
{"airspeed": 0.0, "groundspeed": 0.024057947099208832, "heading": 351, "throttle": 0, "alt": 584.0599975585938, "climb": -0.00010381374886492267}
Client (null) received PUBLISH (d0, q0, r0, m0, '/SERVO_OUTPUT_RAW', ... (326 bytes))
{"time_usec": 556351537, "port": 0, "servo1_raw": 1000, "servo2_raw": 1000, "servo3_raw": 1000, "servo4_raw": 1000, "servo5_raw": 0, "servo6_raw": 0, "servo7_raw": 0, "servo8_raw": 0, "servo9_raw": 0, "servo10_raw": 0, "servo11_raw": 0, "servo12_raw": 0, "servo13_raw": 0, "servo14_raw": 0, "servo15_raw": 0, "servo16_raw": 0}
Client (null) received PUBLISH (d0, q0, r0, m0, '/RC_CHANNELS', ... (375 bytes))
{"time_boot_ms": 556351, "chancount": 16, "chan1_raw": 1500, "chan2_raw": 1500, "chan3_raw": 1000, "chan4_raw": 1500, "chan5_raw": 1800, "chan6_raw": 1000, "chan7_raw": 1000, "chan8_raw": 1800, "chan9_raw": 0, "chan10_raw": 0, "chan11_raw": 0, "chan12_raw": 0, "chan13_raw": 0, "chan14_raw": 0, "chan15_raw": 0, "chan16_raw": 0, "chan17_raw": 0, "chan18_raw": 0, "rssi": 255}
Client (null) received PUBLISH (d0, q0, r0, m0, '/RAW_IMU', ... (166 bytes))
{"time_usec": 556351537, "xacc": 0, "yacc": 0, "zacc": -1001, "xgyro": 0, "ygyro": 0, "zgyro": 0, "xmag": 224, "ymag": 80, "zmag": -528, "id": 0, "temperature": 4185}
Client (null) received PUBLISH (d0, q0, r0, m0, '/SCALED_IMU2', ... (157 bytes))
{"time_boot_ms": 556351, "xacc": 0, "yacc": 0, "zacc": -1001, "xgyro": 0, "ygyro": 0, "zgyro": 0, "xmag": 224, "ymag": 80, "zmag": -528, "temperature": 4185}
Client (null) received PUBLISH (d0, q0, r0, m0, '/SCALED_IMU3', ... (150 bytes))
{"time_boot_ms": 556351, "xacc": 0, "yacc": 0, "zacc": 0, "xgyro": 0, "ygyro": 0, "zgyro": 0, "xmag": 224, "ymag": 80, "zmag": -528, "temperature": 0}
Client (null) received PUBLISH (d0, q0, r0, m0, '/SCALED_PRESSURE', ... (125 bytes))
{"time_boot_ms": 556351, "press_abs": 945.0279541015625, "press_diff": 0.0, "temperature": 3120, "temperature_press_diff": 0}
Client (null) received PUBLISH (d0, q0, r0, m0, '/SCALED_PRESSURE2', ... (125 bytes))
{"time_boot_ms": 556351, "press_abs": 945.0344848632812, "press_diff": 0.0, "temperature": 3120, "temperature_press_diff": 0}
Client (null) received PUBLISH (d0, q0, r0, m0, '/GPS_RAW_INT', ... (254 bytes))
{"time_usec": 556167000, "fix_type": 6, "lat": -353632621, "lon": 1491652374, "alt": 584090, "eph": 121, "epv": 200, "vel": 0, "cog": 0, "satellites_visible": 10, "alt_ellipsoid": 584090, "h_acc": 300, "v_acc": 300, "vel_acc": 40, "hdg_acc": 0, "yaw": 0}
Client (null) received PUBLISH (d0, q0, r0, m0, '/SYSTEM_TIME', ... (60 bytes))
{"time_unix_usec": 1719974163184242, "time_boot_ms": 556351}
Client (null) received PUBLISH (d0, q0, r0, m0, '/AHRS', ... (214 bytes))
{"omegaIx": -0.0008188464562408626, "omegaIy": -0.0008821326773613691, "omegaIz": -0.001373552018776536, "accel_weight": 0.0, "renorm_val": 0.0, "error_rp": 0.002389456843957305, "error_yaw": 0.0015267471317201853}
Client (null) received PUBLISH (d0, q0, r0, m0, '/SIMSTATE', ... (190 bytes))
{"roll": 0.0, "pitch": 0.0, "yaw": -0.12217313796281815, "xacc": 0.0, "yacc": 0.0, "zacc": -9.806650161743164, "xgyro": 0.0, "ygyro": 0.0, "zgyro": 0.0, "lat": -353632621, "lng": 1491652374}
Client (null) received PUBLISH (d0, q0, r0, m0, '/AHRS2', ... (162 bytes))
{"roll": -0.0015804701251909137, "pitch": -0.001818120013922453, "yaw": -0.11905383318662643, "altitude": 584.0899658203125, "lat": -353632621, "lng": 1491652374}
Client (null) received PUBLISH (d0, q0, r0, m0, '/HWSTATUS', ... (26 bytes))
{"Vcc": 5000, "I2Cerr": 0}
Client (null) received PUBLISH (d0, q0, r0, m0, '/TERRAIN_REPORT', ... (160 bytes))
{"lat": -353632620, "lon": 1491652373, "spacing": 100, "terrain_height": 583.843994140625, "current_height": -0.030122069641947746, "pending": 0, "loaded": 504}
Client (null) received PUBLISH (d0, q0, r0, m0, '/EKF_STATUS_REPORT', ... (242 bytes))
{"flags": 831, "velocity_variance": 0.008825237862765789, "pos_horiz_variance": 0.005161004140973091, "pos_vert_variance": 2.521411079214886e-05, "compass_variance": 0.013827554881572723, "terrain_alt_variance": 0.0, "airspeed_variance": 0.0}
Client (null) received PUBLISH (d0, q0, r0, m0, '/LOCAL_POSITION_NED', ... (193 bytes))
{"time_boot_ms": 556351, "x": 0.011731552891433239, "y": -0.01515521015971899, "z": 0.0002586891350802034, "vx": 0.014764560386538506, "vy": -0.018994541838765144, "vz": 0.00010381374886492267}
Client (null) received PUBLISH (d0, q0, r0, m0, '/VIBRATION', ... (188 bytes))
{"time_usec": 556351537, "vibration_x": 0.0026229340583086014, "vibration_y": 0.0027398911770433187, "vibration_z": 0.002939065918326378, "clipping_0": 0, "clipping_1": 0, "clipping_2": 0}
Client (null) received PUBLISH (d0, q0, r0, m0, '/BATTERY_STATUS', ... (347 bytes))
{"id": 0, "battery_function": 0, "type": 0, "temperature": 32767, "voltages": "[12587, 65535, 65535, 65535, 65535, 65535, 65535, 65535, 65535, 65535]", "current_battery": 0, "current_consumed": 0, "energy_consumed": 0, "battery_remaining": 100, "time_remaining": 0, "charge_state": 1, "voltages_ext": "[0, 0, 0, 0]", "mode": 0, "fault_bitmask": 0}
Client (null) received PUBLISH (d0, q0, r0, m0, '/ATTITUDE', ... (228 bytes))
{"time_boot_ms": 556601, "roll": -0.0010254033841192722, "pitch": -0.0012615416198968887, "yaw": -0.140130415558815, "rollspeed": -0.00020983762806281447, "pitchspeed": -0.0002564846072345972, "yawspeed": -0.0007836091099306941}
Client (null) received PUBLISH (d0, q0, r0, m0, '/GLOBAL_POSITION_INT', ... (140 bytes))
{"time_boot_ms": 556601, "lat": -353632620, "lon": 1491652373, "alt": 584060, "relative_alt": -20, "vx": 1, "vy": -1, "vz": 0, "hdg": 35198}
Client (null) received PUBLISH (d0, q0, r0, m0, '/SYS_STATUS', ... (344 bytes))
{"onboard_control_sensors_present": 1399979055, "onboard_control_sensors_enabled": 1382128687, "onboard_control_sensors_health": 1399954479, "load": 0, "voltage_battery": 12587, "current_battery": 0, "battery_remaining": 100, "drop_rate_comm": 0, "errors_comm": 0, "errors_count1": 0, "errors_count2": 0, "errors_count3": 0, "errors_count4": 0}
Client (null) received PUBLISH (d0, q0, r0, m0, '/POWER_STATUS', ... (38 bytes))
{"Vcc": 5000, "Vservo": 0, "flags": 0}
Client (null) received PUBLISH (d0, q0, r0, m0, '/MEMINFO', ... (52 bytes))
{"brkval": 0, "freemem": 65535, "freemem32": 131072}
Client (null) received PUBLISH (d0, q0, r0, m0, '/NAV_CONTROLLER_OUTPUT', ... (204 bytes))
{"nav_roll": -0.00017957837553694844, "nav_pitch": 0.0003147002134937793, "nav_bearing": -8, "target_bearing": 0, "wp_dist": 0, "alt_error": 0.00023443940153811127, "aspd_error": 0.0, "xtrack_error": 0.0}
Client (null) received PUBLISH (d0, q0, r0, m0, '/MISSION_CURRENT', ... (61 bytes))
{"seq": 0, "total": 0, "mission_state": 0, "mission_mode": 0}
Client (null) received PUBLISH (d0, q0, r0, m0, '/VFR_HUD', ... (144 bytes))
{"airspeed": 0.0, "groundspeed": 0.023866524919867516, "heading": 351, "throttle": 0, "alt": 584.0599975585938, "climb": -3.872251181746833e-05}
Client (null) received PUBLISH (d0, q0, r0, m0, '/SERVO_OUTPUT_RAW', ... (326 bytes))
{"time_usec": 556601437, "port": 0, "servo1_raw": 1000, "servo2_raw": 1000, "servo3_raw": 1000, "servo4_raw": 1000, "servo5_raw": 0, "servo6_raw": 0, "servo7_raw": 0, "servo8_raw": 0, "servo9_raw": 0, "servo10_raw": 0, "servo11_raw": 0, "servo12_raw": 0, "servo13_raw": 0, "servo14_raw": 0, "servo15_raw": 0, "servo16_raw": 0}
Client (null) received PUBLISH (d0, q0, r0, m0, '/RC_CHANNELS', ... (375 bytes))
{"time_boot_ms": 556601, "chancount": 16, "chan1_raw": 1500, "chan2_raw": 1500, "chan3_raw": 1000, "chan4_raw": 1500, "chan5_raw": 1800, "chan6_raw": 1000, "chan7_raw": 1000, "chan8_raw": 1800, "chan9_raw": 0, "chan10_raw": 0, "chan11_raw": 0, "chan12_raw": 0, "chan13_raw": 0, "chan14_raw": 0, "chan15_raw": 0, "chan16_raw": 0, "chan17_raw": 0, "chan18_raw": 0, "rssi": 255}
Client (null) received PUBLISH (d0, q0, r0, m0, '/RAW_IMU', ... (166 bytes))
{"time_usec": 556601437, "xacc": 0, "yacc": 0, "zacc": -1001, "xgyro": 0, "ygyro": 0, "zgyro": 0, "xmag": 224, "ymag": 80, "zmag": -528, "id": 0, "temperature": 4185}
Client (null) received PUBLISH (d0, q0, r0, m0, '/SCALED_IMU2', ... (157 bytes))
{"time_boot_ms": 556601, "xacc": 0, "yacc": 0, "zacc": -1001, "xgyro": 0, "ygyro": 0, "zgyro": 0, "xmag": 224, "ymag": 80, "zmag": -528, "temperature": 4185}
Client (null) received PUBLISH (d0, q0, r0, m0, '/SCALED_IMU3', ... (150 bytes))
{"time_boot_ms": 556601, "xacc": 0, "yacc": 0, "zacc": 0, "xgyro": 0, "ygyro": 0, "zgyro": 0, "xmag": 224, "ymag": 80, "zmag": -528, "temperature": 0}
Client (null) received PUBLISH (d0, q0, r0, m0, '/SCALED_PRESSURE', ... (125 bytes))
{"time_boot_ms": 556601, "press_abs": 945.0279541015625, "press_diff": 0.0, "temperature": 3120, "temperature_press_diff": 0}
Client (null) received PUBLISH (d0, q0, r0, m0, '/SCALED_PRESSURE2', ... (125 bytes))
{"time_boot_ms": 556601, "press_abs": 945.0279541015625, "press_diff": 0.0, "temperature": 3120, "temperature_press_diff": 0}
Client (null) received PUBLISH (d0, q0, r0, m0, '/GPS_RAW_INT', ... (254 bytes))
{"time_usec": 556567000, "fix_type": 6, "lat": -353632621, "lon": 1491652374, "alt": 584090, "eph": 121, "epv": 200, "vel": 0, "cog": 0, "satellites_visible": 10, "alt_ellipsoid": 584090, "h_acc": 300, "v_acc": 300, "vel_acc": 40, "hdg_acc": 0, "yaw": 0}
Client (null) received PUBLISH (d0, q0, r0, m0, '/SYSTEM_TIME', ... (60 bytes))
{"time_unix_usec": 1719974163434142, "time_boot_ms": 556601}
Client (null) received PUBLISH (d0, q0, r0, m0, '/AHRS', ... (213 bytes))
{"omegaIx": -0.0008131287759169936, "omegaIy": -0.000876233447343111, "omegaIz": -0.0013703989097848535, "accel_weight": 0.0, "renorm_val": 0.0, "error_rp": 0.002384638413786888, "error_yaw": 0.001512495568022132}
Client (null) received PUBLISH (d0, q0, r0, m0, '/SIMSTATE', ... (190 bytes))
